[
   {
      "title":"Apple Union Square",
      "subtitle":"300 Post St, San Francisco",
      "lat":32.0684,
      "lng":34.8248
   },
   {
      "title":"Blue Bottle Coffee",
      "subtitle":"315 Linden St, San Francisco",
      "lat":32.0853,
      "lng":34.7818
   },
   {
      "title":"Museum of Ice Cream",
      "subtitle":"1 Grant Ave, San Francisco",
      "lat":32.0840,
      "lng":34.7800
   },
   {
      "title":"Tierra Mia",
      "subtitle":"3188 Mission St, San Francisco",
      "lat":32.0753,
      "lng":34.7918
   },
   {
      "title":"Sushi On North Beach",
      "subtitle":"745 Columbus Ave, San Francisco",
      "lat":32.0820,
      "lng":34.7810
   },
   {
      "title":"Studiomix",
      "subtitle":"1000 Van Ness Ave, San Francisco",
     "lat":32.0800,
     "lng":34.7800
   },
   {
      "title":"Equator Coffees",
      "subtitle":"986 Market St, San Francisco",
      "lat":32.0653,
      "lng":34.7718
   },
   {
      "title":"The Broad",
      "subtitle":"221 S Grand Ave, Los Angeles",
      "lat":32.0753,
      "lng":34.7418
   },
   {
      "title":"Museum of Modern Art",
      "subtitle":"151 3rd St, San Francisco",
      "lat":33.0653,
      "lng":34.7878
   },
   {
      "title":"Moscone Center",
      "subtitle":"747 Howard St, San Francisco",
      "lat":33.0853,
      "lng":34.7818
   }
]
